{
  "/en-us/service-locations/puerto-rico": {
    "title": "Puerto Rico",
    "address1": "449 Calle E #2 Industrial Minillas",
    "address2": null,
    "city": "Bayam√≥n",
    "zipCode": "00959-1902",
    "state": "PR",
    "longitude": "-66.085",
    "latitude": "18.415"
  },
  "/en-us/service-locations/albuquerque": {
    "title": "Albuquerque",
    "address1": "1415 Broadway Blvd NE",
    "address2": "Suite D4",
    "city": "Albuquerque",
    "zipCode": "87102",
    "state": "NM",
    "longitude": "-106.642",
    "latitude": "35.097"
  },
  "/en-us/service-locations/little-rock": {
    "title": "Little Rock",
    "address1": "1201 Murphy Drive",
    "address2": null,
    "city": "Maumelle",
    "zipCode": "72113",
    "state": "AR",
    "longitude": "-92.395",
    "latitude": "34.868"
  },
  "/en-us/service-locations/newnan": {
    "title": "Newnan",
    "address1": "320 Coweta Industrial Parkway",
    "address2": "Suite A-B",
    "city": "Newnan",
    "zipCode": "30265",
    "state": "GA",
    "longitude": "-84.179",
    "latitude": "33.856"
  },
  "/en-us/service-locations/austin": {
    "title": "Austin",
    "address1": "4129 Commercial Center Drive",
    "address2": "Ste 475",
    "city": "Austin",
    "zipCode": "78744",
    "state": "TX",
    "longitude": "-97.742",
    "latitude": "30.209"
  },
  "/en-us/service-locations/baltimore": {
    "title": "Baltimore",
    "address1": "6770 Oak Hall Lane",
    "address2": "Unit #107",
    "city": "Columbia",
    "zipCode": "21045",
    "state": "MD",
    "longitude": "-76.822",
    "latitude": "39.186"
  },
  "/en-us/service-locations/birmingham-usa": {
    "title": "Birmingham (USA)",
    "address1": "5551 Parkwest Drive",
    "address2": "Suite 155",
    "city": "Bessemer",
    "zipCode": "35022",
    "state": "AL",
    "longitude": "-87.011",
    "latitude": "33.372"
  },
  "/en-us/service-locations/boise": {
    "title": "Boise",
    "address1": "2855 South Cole Road",
    "address2": null,
    "city": "Boise",
    "zipCode": "83709",
    "state": "ID",
    "longitude": "-116.274",
    "latitude": "43.579"
  },
  "/en-us/service-locations/boston": {
    "title": "Boston",
    "address1": "1 Wall Street",
    "address2": null,
    "city": "Hudson",
    "zipCode": "03051",
    "state": "NH",
    "longitude": "-71.392",
    "latitude": "42.777"
  },
  "/en-us/service-locations/buffalo": {
    "title": "Buffalo",
    "address1": "400 Riverwalk Parkway",
    "address2": null,
    "city": "Tonawanda",
    "zipCode": "14150",
    "state": "NY",
    "longitude": "-78.913",
    "latitude": "43.0"
  },
  "/en-us/service-locations/central-pa---lancaster": {
    "title": "Central PA / Lancaster",
    "address1": "595 East Oregon Rd",
    "address2": null,
    "city": "Lititz",
    "zipCode": "17543",
    "state": "PA",
    "longitude": "-76.29",
    "latitude": "40.111"
  },
  "/en-us/service-locations/charleston": {
    "title": "Charleston",
    "address1": "9509 Hamburg Rd.",
    "address2": null,
    "city": "Ladson",
    "zipCode": "29456",
    "state": "SC",
    "longitude": "-80.135",
    "latitude": "33.018"
  },
  "/en-us/service-locations/charlotte": {
    "title": "Charlotte",
    "address1": "3005-I Crosspoint Center Lane",
    "address2": null,
    "city": "Charlotte",
    "zipCode": "28269",
    "state": "NC",
    "longitude": "-80.838",
    "latitude": "35.283"
  },
  "/en-us/service-locations/chicago": {
    "title": "Chicago",
    "address1": "3811 Rose St.",
    "address2": null,
    "city": "Schiller Park",
    "zipCode": "60176",
    "state": "IL",
    "longitude": "-87.867",
    "latitude": "41.949"
  },
  "/en-us/service-locations/cincinnati": {
    "title": "Cincinnati",
    "address1": "6838 Fairfield Business Drive",
    "address2": null,
    "city": "Fairfield",
    "zipCode": "45014",
    "state": "OH",
    "longitude": "-84.491",
    "latitude": "39.317"
  },
  "/en-us/service-locations/cleveland": {
    "title": "Cleveland",
    "address1": "55 Andrews Circle",
    "address2": null,
    "city": "Brecksville",
    "zipCode": "44141",
    "state": "OH",
    "longitude": "-81.642",
    "latitude": "41.281"
  },
  "/en-us/service-locations/columbus": {
    "title": "Columbus",
    "address1": "1675 East Gate Parkway",
    "address2": null,
    "city": "Gahanna",
    "zipCode": "43230",
    "state": "OH",
    "longitude": "-82.824",
    "latitude": "39.994"
  },
  "/en-us/service-locations/concord": {
    "title": "Concord",
    "address1": "5060 Forni Drive",
    "address2": "Suite D",
    "city": "Concord",
    "zipCode": "94520",
    "state": "CA",
    "longitude": "-122.033",
    "latitude": "38.02"
  },
  "/en-us/service-locations/hartford-and-connecticut": {
    "title": "Hartford and Connecticut",
    "address1": "85 Fieldstone Court",
    "address2": null,
    "city": "Cheshire",
    "zipCode": "06410",
    "state": "CT",
    "longitude": "-72.889",
    "latitude": "41.548"
  },
  "/en-us/service-locations/dallas": {
    "title": "Dallas",
    "address1": "420 Freeport Pkwy",
    "address2": null,
    "city": "Coppell",
    "zipCode": "75019",
    "state": "TX",
    "longitude": "-97.028",
    "latitude": "32.984"
  },
  "/en-us/service-locations/denver": {
    "title": "Denver",
    "address1": "3925 Monaco Parkway",
    "address2": "Unit D",
    "city": "Denver",
    "zipCode": "80207",
    "state": "CO",
    "longitude": "-104.913",
    "latitude": "39.772"
  },
  "/en-us/service-locations/des-moines": {
    "title": "Des Moines",
    "address1": "1863 NE 54th Ave",
    "address2": "Bldg. #8",
    "city": "Des Moines",
    "zipCode": "50313",
    "state": "IA",
    "longitude": "-93.591",
    "latitude": "41.658"
  },
  "/en-us/service-locations/detroit": {
    "title": "Detroit",
    "address1": "2741 Elliott",
    "address2": null,
    "city": "Troy",
    "zipCode": "48083",
    "state": "MI",
    "longitude": "-83.092",
    "latitude": "42.539"
  },
  "/en-us/service-locations/fresno": {
    "title": "Fresno",
    "address1": "3742 W Gettysburg Ave",
    "address2": null,
    "city": "Fresno",
    "zipCode": "93722",
    "state": "CA",
    "longitude": "-119.861",
    "latitude": "36.8"
  },
  "/en-us/service-locations/grand-rapids": {
    "title": "Grand Rapids",
    "address1": "103 76th St",
    "address2": "Byron Township STE A",
    "city": "Grand Rapids",
    "zipCode": "49548",
    "state": "MI",
    "longitude": "-85.668",
    "latitude": "42.828"
  },
  "/en-us/service-locations/greensboro": {
    "title": "Greensboro",
    "address1": null,
    "address2": null,
    "city": null,
    "zipCode": null,
    "state": null,
    "longitude": "-79.453",
    "latitude": "36.049"
  },
  "/en-us/service-locations/honolulu": {
    "title": "Honolulu",
    "address1": "106 Puuhale Road",
    "address2": null,
    "city": "Honolulu",
    "zipCode": "96819",
    "state": "HI",
    "longitude": "-157.891186",
    "latitude": "21.3226892"
  },
  "/en-us/service-locations/houston": {
    "title": "Houston",
    "address1": "10801 Kempwood Drive",
    "address2": null,
    "city": "Houston",
    "zipCode": "77043",
    "state": "TX",
    "longitude": "-95.568",
    "latitude": "29.823"
  },
  "/en-us/service-locations/indianapolis": {
    "title": "Indianapolis",
    "address1": "50 S. Koweba Lane",
    "address2": null,
    "city": "Indianapolis",
    "zipCode": "46201",
    "state": "IN",
    "longitude": "-86.124",
    "latitude": "39.766"
  },
  "/en-us/service-locations/jackson": {
    "title": "Jackson",
    "address1": "5530 Industrial Road",
    "address2": null,
    "city": "Jackson",
    "zipCode": "39209",
    "state": "MS",
    "longitude": "-90.279758",
    "latitude": "32.30228"
  },
  "/en-us/service-locations/jacksonville": {
    "title": "Jacksonville",
    "address1": "1420 Vantage Way South, Suite #112",
    "address2": null,
    "city": "Jacksonville",
    "zipCode": "32218",
    "state": "FL",
    "longitude": "-81.608",
    "latitude": "30.261"
  },
  "/en-us/service-locations/kansas-city": {
    "title": "Kansas City",
    "address1": "10000 Lackman Road",
    "address2": null,
    "city": "Lenexa",
    "zipCode": "66219",
    "state": "KS",
    "longitude": "-94.762",
    "latitude": "38.946"
  },
  "/en-us/service-locations/knoxville": {
    "title": "Knoxville",
    "address1": "1506 Breda Drive",
    "address2": null,
    "city": "Knoxville",
    "zipCode": "37918",
    "state": "TN",
    "longitude": "-83.939",
    "latitude": "36.008"
  },
  "/en-us/service-locations/las-vegas": {
    "title": "Las Vegas",
    "address1": "4524 North Lawrence Street",
    "address2": null,
    "city": "North Las Vegas",
    "zipCode": "89081",
    "state": "NV",
    "longitude": "-115.123",
    "latitude": "36.243"
  },
  "/en-us/service-locations/long-island": {
    "title": "Long Island",
    "address1": "609-3 Cantiague Rock Rd.",
    "address2": "Unit C-3",
    "city": "Westbury",
    "zipCode": "11590",
    "state": "NY",
    "longitude": "-73.554",
    "latitude": "40.775"
  },
  "/en-us/service-locations/los-angeles": {
    "title": "Los Angeles",
    "address1": "18120 Central Ave.",
    "address2": null,
    "city": "Carson",
    "zipCode": "90746",
    "state": "CA",
    "longitude": "-118.062",
    "latitude": "33.967"
  },
  "/en-us/service-locations/thousand-oaks": {
    "title": "Thousand Oaks",
    "address1": "6100 Condor Drive",
    "address2": "Unit B",
    "city": "Moorpark",
    "zipCode": "93021",
    "state": "CA",
    "longitude": "-118.385",
    "latitude": "34.228"
  },
  "/en-us/service-locations/louisville": {
    "title": "Louisville",
    "address1": "4646 Louisville Avenue",
    "address2": null,
    "city": "Louisville",
    "zipCode": "40209",
    "state": "KY",
    "longitude": "-85.757",
    "latitude": "38.182"
  },
  "/en-us/service-locations/madison": {
    "title": "Madison",
    "address1": "4005 Felland Rd",
    "address2": "Suite 112",
    "city": "Madison",
    "zipCode": "53718",
    "state": "WI",
    "longitude": "-89.276",
    "latitude": "43.144"
  },
  "/en-us/service-locations/memphis": {
    "title": "Memphis",
    "address1": "3900 Willow Lake Blvd",
    "address2": null,
    "city": "Memphis",
    "zipCode": "38118",
    "state": "TN",
    "longitude": "-89.894",
    "latitude": "35.041"
  },
  "/en-us/service-locations/miami": {
    "title": "Miami",
    "address1": "10800 NW 92nd Terrace",
    "address2": null,
    "city": "Medley",
    "zipCode": "33178",
    "state": "FL",
    "longitude": "-80.372",
    "latitude": "25.857"
  },
  "/en-us/service-locations/milwaukee": {
    "title": "Milwaukee",
    "address1": "17155 W. Glendale Drive",
    "address2": null,
    "city": "New Berlin",
    "zipCode": "53151",
    "state": "WI",
    "longitude": "-88.119",
    "latitude": "42.997"
  },
  "/en-us/service-locations/minnesota": {
    "title": "Minnesota",
    "address1": "9201 Wyoming Ave. North",
    "address2": "Suite 103",
    "city": "Brooklyn Park",
    "zipCode": "55445",
    "state": "MN",
    "longitude": "-93.38277",
    "latitude": "45.12149"
  },
  "/en-us/service-locations/mobile---biloxi": {
    "title": "Mobile / Biloxi",
    "address1": "4476 Laughlin Dr South",
    "address2": null,
    "city": "Mobile",
    "zipCode": "36693",
    "state": "AL",
    "longitude": "-88.174",
    "latitude": "30.574"
  },
  "/en-us/service-locations/nashville": {
    "title": "Nashville",
    "address1": "800 Airpark Commerce Drive",
    "address2": "STE 802",
    "city": "Nashville",
    "zipCode": "37217",
    "state": "TN",
    "longitude": "-86.637",
    "latitude": "36.105"
  },
  "/en-us/service-locations/new-jersey": {
    "title": "New Jersey",
    "address1": "81 Walsh Drive",
    "address2": null,
    "city": "Parsippany",
    "zipCode": "07054",
    "state": "NJ",
    "longitude": "-74.448",
    "latitude": "40.877"
  },
  "/en-us/service-locations/new-orleans": {
    "title": "New Orleans",
    "address1": "110 Widgeon Dr",
    "address2": null,
    "city": "St. Rose",
    "zipCode": "70087",
    "state": "LA",
    "longitude": "-90.285",
    "latitude": "29.988"
  },
  "/en-us/service-locations/new-york": {
    "title": "New York",
    "address1": "520 Jefferson Avenue",
    "address2": null,
    "city": "Secaucus",
    "zipCode": "07094-2014",
    "state": "NJ",
    "longitude": "-74.065",
    "latitude": "40.774"
  },
  "/en-us/service-locations/norfolk": {
    "title": "Norfolk",
    "address1": "6 Lockwood Dr",
    "address2": null,
    "city": "Hampton",
    "zipCode": "23661",
    "state": "VA",
    "longitude": "-76.374",
    "latitude": "37.02"
  },
  "/en-us/service-locations/oklahoma-city": {
    "title": "Oklahoma City",
    "address1": "2616 South Vermont Avenue",
    "address2": null,
    "city": "Oklahoma City",
    "zipCode": "73108",
    "state": "OK",
    "longitude": "-97.598",
    "latitude": "35.496"
  },
  "/en-us/service-locations/omaha": {
    "title": "Omaha",
    "address1": "7734 South 133rd Street",
    "address2": null,
    "city": "Omaha",
    "zipCode": "68138",
    "state": "NE",
    "longitude": "-96.124",
    "latitude": "41.182"
  },
  "/en-us/service-locations/orlando": {
    "title": "Orlando",
    "address1": "4200 Church Street",
    "address2": "Suite 1000",
    "city": "Sanford",
    "zipCode": "32771",
    "state": "FL",
    "longitude": "-81.326",
    "latitude": "28.824"
  },
  "/en-us/service-locations/philadelphia": {
    "title": "Philadelphia",
    "address1": null,
    "address2": null,
    "city": null,
    "zipCode": null,
    "state": null,
    "longitude": "-74.730805",
    "latitude": "40.249222"
  },
  "/en-us/service-locations/phoenix": {
    "title": "Phoenix",
    "address1": "3575 S. 28th St.",
    "address2": null,
    "city": "Phoenix",
    "zipCode": "85040",
    "state": "AZ",
    "longitude": "-111.999",
    "latitude": "33.395"
  },
  "/en-us/service-locations/pittsburgh": {
    "title": "Pittsburgh",
    "address1": "611 East Pittsburgh Mckeesport Blvd.",
    "address2": null,
    "city": "North Versailles",
    "zipCode": "15137",
    "state": "PA",
    "longitude": "-79.828",
    "latitude": "40.371"
  },
  "/en-us/service-locations/portland": {
    "title": "Portland",
    "address1": "5387 N. Marine Drive",
    "address2": null,
    "city": "Portland",
    "zipCode": "97203",
    "state": "OR",
    "longitude": "-122.723",
    "latitude": "45.619"
  },
  "/en-us/service-locations/providence": {
    "title": "Providence",
    "address1": "680 Narragansett Park Dr.",
    "address2": null,
    "city": "Pawtucket",
    "zipCode": "02861",
    "state": "RI",
    "longitude": "-71.349",
    "latitude": "41.862"
  },
  "/en-us/service-locations/reno": {
    "title": "Reno",
    "address1": "1498 Kleppe Lane",
    "address2": null,
    "city": "Sparks",
    "zipCode": "89434",
    "state": "NV",
    "longitude": "-119.715",
    "latitude": "39.526"
  },
  "/en-us/service-locations/richmond": {
    "title": "Richmond",
    "address1": "10264 Sycamore Drive",
    "address2": null,
    "city": "Ashland",
    "zipCode": "23005",
    "state": "VA",
    "longitude": "-77.456",
    "latitude": "37.702"
  },
  "/en-us/service-locations/sacramento": {
    "title": "Sacramento",
    "address1": "1878 Industrial Drive #A",
    "address2": null,
    "city": "Stockton",
    "zipCode": "95206",
    "state": "CA",
    "longitude": "-121.249",
    "latitude": "37.911"
  },
  "/en-us/service-locations/salt-lake-city": {
    "title": "Salt Lake City",
    "address1": "4325 Commercial Way",
    "address2": "Suite C",
    "city": "Salt Lake City",
    "zipCode": "84104",
    "state": "UT",
    "longitude": "-111.966",
    "latitude": "40.74"
  },
  "/en-us/service-locations/san-antonio": {
    "title": "San Antonio",
    "address1": "7007 Fairgrounds Pkwy",
    "address2": null,
    "city": "San Antonio",
    "zipCode": "78238",
    "state": "TX",
    "longitude": "-98.617",
    "latitude": "29.456"
  },
  "/en-us/service-locations/san-bernardino": {
    "title": "San Bernardino",
    "address1": "5360 Goodman Road",
    "address2": null,
    "city": "Eastvale",
    "zipCode": "91752",
    "state": "CA",
    "longitude": "-117.555",
    "latitude": "33.999"
  },
  "/en-us/service-locations/san-diego": {
    "title": "San Diego",
    "address1": "12316 World Trade Dr",
    "address2": "Suite 100",
    "city": "San Diego",
    "zipCode": "92128",
    "state": "CA",
    "longitude": "-117.071",
    "latitude": "32.989"
  },
  "/en-us/service-locations/san-francisco-san-jose": {
    "title": "San Francisco / San Jose",
    "address1": "350 Hatch Drive",
    "address2": null,
    "city": "Foster City",
    "zipCode": "94404",
    "state": "CA",
    "longitude": "-122.275",
    "latitude": "37.566"
  },
  "/en-us/service-locations/seattle": {
    "title": "Seattle",
    "address1": "18709 East Valley Highway",
    "address2": null,
    "city": "Kent",
    "zipCode": "98032",
    "state": "WA",
    "longitude": "-122.227",
    "latitude": "47.435"
  },
  "/en-us/service-locations/shreveport": {
    "title": "Shreveport",
    "address1": "5430 Greenwood Rd.",
    "address2": null,
    "city": "Shreveport",
    "zipCode": "71109",
    "state": "LA",
    "longitude": "-93.841",
    "latitude": "32.464"
  },
  "/en-us/service-locations/st-louis": {
    "title": "St. Louis",
    "address1": "629 Lambert Pointe Drive",
    "address2": null,
    "city": "Hazelwood",
    "zipCode": "63042",
    "state": "MO",
    "longitude": "-90.377",
    "latitude": "38.775"
  },
  "/en-us/service-locations/tallahassee": {
    "title": "Tallahassee",
    "address1": "119 Hamilton Park Dr Suite 3",
    "address2": null,
    "city": "Tallahassee",
    "zipCode": "32304",
    "state": "FL",
    "longitude": "-84.3448086",
    "latitude": "30.436065"
  },
  "/en-us/service-locations/tampa": {
    "title": "Tampa",
    "address1": "9207 Palm River Road",
    "address2": "Suite 108",
    "city": "Tampa",
    "zipCode": "33619",
    "state": "FL",
    "longitude": "-82.351",
    "latitude": "27.939"
  },
  "/en-us/service-locations/syracuse": {
    "title": "Syracuse",
    "address1": "4 Dwight Park Drive",
    "address2": null,
    "city": "Syracuse",
    "zipCode": "13209",
    "state": "NY",
    "longitude": "-76.255",
    "latitude": "43.111"
  },
  "/en-us/service-locations/northern-va": {
    "title": "Northern VA",
    "address1": "4305 Henninger Ct.",
    "address2": null,
    "city": "Chantilly",
    "zipCode": "20151",
    "state": "VA",
    "longitude": "-77.434",
    "latitude": "38.885"
  },
  "/en-us/service-locations/white-plains": {
    "title": "White Plains",
    "address1": null,
    "address2": null,
    "city": null,
    "zipCode": null,
    "state": null,
    "longitude": "-73.777",
    "latitude": "41.099"
  },
  "/en-us/service-locations/wichita": {
    "title": "Wichita",
    "address1": "4210 West Pawnee Street",
    "address2": null,
    "city": "Wichita",
    "zipCode": "67209",
    "state": "KS",
    "longitude": "-97.394",
    "latitude": "37.651"
  },
  "/en-us/service-locations/fayetteville": {
    "title": "Fayetteville",
    "address1": "413-A Albano Drive",
    "address2": null,
    "city": "Springdale",
    "zipCode": "72762",
    "state": "AR",
    "longitude": "-94.225",
    "latitude": "36.172"
  },
  "/en-us/service-locations/tucson": {
    "title": "Tucson",
    "address1": "1635 West Grant Rd",
    "address2": null,
    "city": "Tucson",
    "zipCode": "85745",
    "state": "AZ",
    "longitude": "-111.005",
    "latitude": "32.272"
  },
  "/en-us/service-locations/south-dakota-north-dakota": {
    "title": "South Dakota/North Dakota",
    "address1": "3321 N. Potsdam Avenue",
    "address2": "Suite 3",
    "city": "Sioux Falls",
    "zipCode": "57104",
    "state": "SD",
    "longitude": "-96.695",
    "latitude": "43.581"
  },
  "/en-us/service-locations/greenville-spartanburg--asheville": {
    "title": "Greenville-Spartanburg & Asheville",
    "address1": "380 Carolina Drive",
    "address2": null,
    "city": "Roebuck",
    "zipCode": "29376",
    "state": "SC",
    "longitude": "-81.953",
    "latitude": "34.911"
  },
  "/en-us/service-locations/dayton": {
    "title": "Dayton",
    "address1": "2800 Old Springfield Road",
    "address2": "Suite 7(G)",
    "city": "Vandalia",
    "zipCode": "45377",
    "state": "OH",
    "longitude": "-84.2320329",
    "latitude": "39.9081078"
  },
  "/en-us/service-locations/atlanta": {
    "title": "Atlanta",
    "address1": "1680 Executive Dr S",
    "address2": "Suite 100",
    "city": "Duluth",
    "zipCode": "30096",
    "state": "GA",
    "longitude": "-84.11",
    "latitude": "33.955"
  },
  "/en-us/service-locations/aston": {
    "title": "Aston",
    "address1": "2 Nealy Blvd.",
    "address2": "Suites 7-10",
    "city": "Aston",
    "zipCode": "19014",
    "state": "PA",
    "longitude": "-75.411",
    "latitude": "39.834"
  },
  "/en-us/service-locations/columbia": {
    "title": "Columbia",
    "address1": "200 Alta Vista Ct",
    "address2": null,
    "city": "Lexington",
    "zipCode": "29073",
    "state": "SC",
    "longitude": "-81.22379",
    "latitude": "33.95986"
  },
  "/en-us/service-locations/davenport": {
    "title": "Davenport",
    "address1": "7441 Vine St. Ct. Suite A",
    "address2": null,
    "city": "Davenport",
    "zipCode": "52806",
    "state": "IA",
    "longitude": "-90.619",
    "latitude": "41.598"
  },
  "/en-us/service-locations/lafayette": {
    "title": "Lafayette",
    "address1": "128 North Bud St.",
    "address2": null,
    "city": "Scott",
    "zipCode": "70583",
    "state": "LA",
    "longitude": "-92.060821",
    "latitude": "30.242557"
  },
  "/en-us/service-locations/lexington": {
    "title": "Lexington",
    "address1": "1700 Fortune Ct.,",
    "address2": null,
    "city": "Lexington",
    "zipCode": "40509",
    "state": "KY",
    "longitude": "-84.45",
    "latitude": "38.041"
  },
  "/en-us/service-locations/salem": {
    "title": "Salem",
    "address1": "1348 Roanoke Blvd.",
    "address2": null,
    "city": "Salem",
    "zipCode": "24153",
    "state": "VA",
    "longitude": "-80.036",
    "latitude": "37.28"
  },
  "/en-us/service-locations/savannah": {
    "title": "Savannah",
    "address1": "2216 Gamble Rd",
    "address2": null,
    "city": "Savannah",
    "zipCode": "31405",
    "state": "GA",
    "longitude": "-81.148",
    "latitude": "32.044"
  },
  "/en-us/service-locations/waynesboro": {
    "title": "Waynesboro",
    "address1": "9 Hannah Circle",
    "address2": null,
    "city": "Waynesboro",
    "zipCode": "22980",
    "state": "VA",
    "longitude": "-78.939",
    "latitude": "38.056"
  },
  "/en-us/service-locations/albany": {
    "title": "Albany",
    "address1": "1604 W. Oakridge Drive",
    "address2": null,
    "city": "Albany",
    "zipCode": "31707",
    "state": "GA",
    "longitude": "-84.196",
    "latitude": "31.549"
  },
  "/en-us/service-locations/springfield": {
    "title": "Springfield",
    "address1": "2720 South Austin Dr.",
    "address2": null,
    "city": "Springfield",
    "zipCode": "65807",
    "state": "MO",
    "longitude": "-93.323",
    "latitude": "37.164"
  },
  "/en-us/service-locations/fort-lauderdale": {
    "title": "Fort Lauderdale",
    "address1": "1300 NW 22nd Street",
    "address2": null,
    "city": "Pompano",
    "zipCode": "33069",
    "state": "FL",
    "longitude": "-80.189",
    "latitude": "26.256"
  },
  "/en-us/service-locations/brockton-norwood": {
    "title": "Brockton-Norwood",
    "address1": "1150 Providence Hwy",
    "address2": null,
    "city": "Sharon",
    "zipCode": "02067",
    "state": "MA",
    "longitude": "-71.233",
    "latitude": "42.12"
  },
  "/en-us/service-locations/winston-salem": {
    "title": "Winston-Salem",
    "address1": "3775 Industrial Dr.",
    "address2": null,
    "city": "Winston-Salem",
    "zipCode": "27105",
    "state": "NC",
    "longitude": "-80.241",
    "latitude": "36.15"
  },
  "/en-us/service-locations/raleigh": {
    "title": "Raleigh",
    "address1": "1251 Intrepid Ct.",
    "address2": null,
    "city": "Raleigh",
    "zipCode": "27610",
    "state": "NC",
    "longitude": "-78.556",
    "latitude": "35.765"
  },
  "/en-us/service-locations/green-bay": {
    "title": "Green Bay",
    "address1": "9087 Westphal Lane",
    "address2": null,
    "city": "Neenah",
    "zipCode": "54956",
    "state": "WI",
    "longitude": "-88.547",
    "latitude": "44.221"
  },
  "/en-us/service-locations/springfield-il": {
    "title": "Springfield, IL",
    "address1": "3925 N Peoria Rd",
    "address2": "Ste C",
    "city": "Springfield",
    "zipCode": "62702",
    "state": "IL",
    "longitude": "0.0",
    "latitude": "0.0"
  },
  "/en-us/service-locations/drums": {
    "title": "Drums",
    "address1": "78 Hillside Drive",
    "address2": null,
    "city": "Drums",
    "zipCode": "18222",
    "state": "PA",
    "longitude": "-75.98",
    "latitude": "40.99"
  },
  "/en-us/service-locations/el-paso": {
    "title": "El Paso",
    "address1": null,
    "address2": null,
    "city": null,
    "zipCode": null,
    "state": null,
    "longitude": "0.0",
    "latitude": "0.0"
  },
  "/en-us/service-locations/fort-worth": {
    "title": "Fort Worth",
    "address1": null,
    "address2": null,
    "city": null,
    "zipCode": null,
    "state": null,
    "longitude": "0.0",
    "latitude": "0.0"
  },
  "/en-us/service-locations/long-beach": {
    "title": "Long Beach",
    "address1": null,
    "address2": null,
    "city": null,
    "zipCode": null,
    "state": null,
    "longitude": "0.0",
    "latitude": "0.0"
  },
  "/en-us/service-locations/oakland": {
    "title": "Oakland",
    "address1": null,
    "address2": null,
    "city": null,
    "zipCode": null,
    "state": null,
    "longitude": "0.0",
    "latitude": "0.0"
  },
  "/en-us/service-locations/tulsa": {
    "title": "Tulsa",
    "address1": "1641 A North 164th East Ave",
    "address2": null,
    "city": "Tulsa",
    "zipCode": "74116",
    "state": "OK",
    "longitude": "-95.79368",
    "latitude": "36.18133"
  },
  "/en-us/service-locations/anaheim": {
    "title": "Anaheim",
    "address1": null,
    "address2": null,
    "city": null,
    "zipCode": null,
    "state": null,
    "longitude": "0.0",
    "latitude": "0.0"
  },
  "/en-us/service-locations/arlington": {
    "title": "Arlington",
    "address1": null,
    "address2": null,
    "city": null,
    "zipCode": null,
    "state": null,
    "longitude": "0.0",
    "latitude": "0.0"
  },
  "/en-us/service-locations/bakersfield": {
    "title": "Bakersfield",
    "address1": null,
    "address2": null,
    "city": null,
    "zipCode": null,
    "state": null,
    "longitude": "0.0",
    "latitude": "0.0"
  },
  "/en-us/service-locations/mesa": {
    "title": "Mesa",
    "address1": null,
    "address2": null,
    "city": null,
    "zipCode": null,
    "state": null,
    "longitude": "0.0",
    "latitude": "0.0"
  },
  "/en-us/service-locations/colorado-springs": {
    "title": "Colorado Springs",
    "address1": null,
    "address2": null,
    "city": null,
    "zipCode": null,
    "state": null,
    "longitude": "0.0",
    "latitude": "0.0"
  },
  "/en-us/service-locations/waco": {
    "title": "Waco",
    "address1": "7445 Pegasus Dr.",
    "address2": null,
    "city": "Temple",
    "zipCode": "76501",
    "state": "TX",
    "longitude": "-97.136",
    "latitude": "31.55"
  },
  "/en-us/service-locations/bridgewater": {
    "title": "Bridgewater",
    "address1": null,
    "address2": null,
    "city": null,
    "zipCode": null,
    "state": null,
    "longitude": "0.0",
    "latitude": "0.0"
  },
  "/en-us/service-locations/pensacola": {
    "title": "Pensacola",
    "address1": "3371 Addison Dr",
    "address2": null,
    "city": "Pensacola",
    "zipCode": "32514",
    "state": "FL",
    "longitude": "-87.195",
    "latitude": "30.531"
  },
  "/en-us/service-locations/fort-myers": {
    "title": "Fort Myers",
    "address1": "3060 Sivan Rd",
    "address2": null,
    "city": "Fort Myers",
    "zipCode": "33916",
    "state": "FL",
    "longitude": "-81.867",
    "latitude": "26.535"
  },
  "/en-us/service-locations/oceanside": {
    "title": "Oceanside",
    "address1": null,
    "address2": null,
    "city": null,
    "zipCode": null,
    "state": null,
    "longitude": "0.0",
    "latitude": "0.0"
  },
  "/en-us/service-locations/fremont": {
    "title": "Fremont",
    "address1": "45133 Industrial Drive",
    "address2": null,
    "city": "Fremont",
    "zipCode": null,
    "state": "CA",
    "longitude": "-121.952",
    "latitude": "37.497"
  },
  "/en-us/service-locations/orange-county": {
    "title": "Orange County",
    "address1": null,
    "address2": null,
    "city": null,
    "zipCode": null,
    "state": null,
    "longitude": null,
    "latitude": null
  },
  "/en-us/service-locations/spokane": {
    "title": "Spokane",
    "address1": "1011 S Garfield Rd",
    "address2": null,
    "city": "Airway Heights",
    "zipCode": "99001",
    "state": "WA",
    "longitude": "-117.565",
    "latitude": "47.636"
  },
  "/en-us/service-locations/paducah": {
    "title": "Paducah",
    "address1": "8981 US Highway 62",
    "address2": null,
    "city": "Calvert City",
    "zipCode": "42029",
    "state": "KY",
    "longitude": "-88.428",
    "latitude": "37.005"
  },
  "/en-us/service-locations/longview": {
    "title": "Longview",
    "address1": "4777 US Highway 259",
    "address2": null,
    "city": "Longview",
    "zipCode": "75605",
    "state": "TX",
    "longitude": "-94.74",
    "latitude": "32.577"
  },
  "/en-us/service-locations/new-york--long-island": {
    "title": "New York & Long Island",
    "address1": "609-3 Cantiague Rock Rd.",
    "address2": "Unit C-3",
    "city": "Westbury",
    "zipCode": "11590",
    "state": "NY",
    "longitude": "-73.554",
    "latitude": "40.775"
  },
  "/en-us/service-locations/plymouth": {
    "title": "Plymouth",
    "address1": "45801 Mast St",
    "address2": null,
    "city": "Plymouth",
    "zipCode": "48170",
    "state": "MI",
    "longitude": "-83.497129",
    "latitude": "42.3892371"
  },
  "/en-us/service-locations/orland-park": {
    "title": "Orland Park",
    "address1": "10499 164th Pl",
    "address2": null,
    "city": "Orland Park",
    "zipCode": "60467",
    "state": "IL",
    "longitude": "-87.876",
    "latitude": "41.59"
  },
  "/en-us/service-locations/myrtle-beach": {
    "title": "Myrtle Beach",
    "address1": "4725-4729 North Gate Blvd",
    "address2": null,
    "city": "Myrtle Beach",
    "zipCode": "29577",
    "state": "SC",
    "longitude": "-78.887",
    "latitude": "33.689"
  },
  "/en-us/service-locations/cheyenne": {
    "title": "Cheyenne",
    "address1": "711 E Fox Farm",
    "address2": null,
    "city": "Cheyenne",
    "zipCode": "82007",
    "state": "WY",
    "longitude": "-104.82",
    "latitude": "41.14"
  },
  "/en-us/service-locations/albany-ny": {
    "title": "Albany, NY",
    "address1": "82 Rotterdam Industrial Park",
    "address2": null,
    "city": "Schenectady",
    "zipCode": "12306",
    "state": "NY",
    "longitude": "-73.9938585",
    "latitude": "42.7872034"
  },
  "/en-us/service-locations/chattanooga": {
    "title": "Chattanooga",
    "address1": "3101 William St, Suite 115",
    "address2": null,
    "city": "Chattanooga",
    "zipCode": "37410",
    "state": "TN",
    "longitude": "-85.3213963",
    "latitude": "35.019112"
  },
  "/en-us/service-locations/proctorville": {
    "title": "Proctorville",
    "address1": "410 Commerce Dr",
    "address2": null,
    "city": "South Point",
    "zipCode": "45680",
    "state": "OH",
    "longitude": "-82.584",
    "latitude": "38.428"
  },
  "/en-us/service-locations/cedar-rapids": {
    "title": "Cedar Rapids",
    "address1": null,
    "address2": null,
    "city": null,
    "zipCode": null,
    "state": null,
    "longitude": "0.0",
    "latitude": "0.0"
  },
  "/en-us/service-locations/jacksontn": {
    "title": "Jackson,TN",
    "address1": "1590 Airways Blvd",
    "address2": null,
    "city": "Jackson",
    "zipCode": "38301",
    "state": "TN",
    "longitude": "-88.847",
    "latitude": "35.618"
  },
  "/en-us/service-locations/washington": {
    "title": "Washington",
    "address1": null,
    "address2": null,
    "city": null,
    "zipCode": null,
    "state": null,
    "longitude": "0.0",
    "latitude": "0.0"
  },
  "/en-us/service-locations/kingsport": {
    "title": "Kingsport",
    "address1": "629 Eastern Star Rd.",
    "address2": null,
    "city": "Kingsport",
    "zipCode": "37663",
    "state": "TN",
    "longitude": "-82.52",
    "latitude": "36.447"
  },
  "/en-us/service-locations/ocala": {
    "title": "Ocala",
    "address1": "7751 SE 59th Ct.",
    "address2": null,
    "city": "Ocala",
    "zipCode": "34472",
    "state": "FL",
    "longitude": "-82.051",
    "latitude": "29.109"
  },
  "/en-us/service-locations/west-palm-beach": {
    "title": "West Palm Beach",
    "address1": "2213 Vista Pkwy",
    "address2": "STE 2",
    "city": "West Palm Beach",
    "zipCode": "33411",
    "state": "FL",
    "longitude": "-80.15",
    "latitude": "26.713"
  },
  "/en-us/service-locations/denver-copy": {
    "title": "Denver",
    "address1": "3925 Monaco Parkway",
    "address2": "Unit D",
    "city": "Denver",
    "zipCode": "80207",
    "state": "CO",
    "longitude": "-104.913",
    "latitude": "39.772"
  },
  "/en-us/service-locations/minneapolis": {
    "title": "Minnesota",
    "address1": "9201 Wyoming Ave. North",
    "address2": "Suite 103",
    "city": "Brooklyn Park",
    "zipCode": "55445",
    "state": "MN",
    "longitude": "-93.38277",
    "latitude": "45.12149"
  },
  "/en-us/service-locations/trenton": {
    "title": "Trenton",
    "address1": "649 Whitehead Road",
    "address2": null,
    "city": "Lawrenceville",
    "zipCode": "08628",
    "state": "NJ",
    "longitude": "-74.73081",
    "latitude": "40.24913"
  },
  "/en-us/service-locations/allentown": {
    "title": "Allentown",
    "address1": null,
    "address2": null,
    "city": "Allentown",
    "zipCode": "18102",
    "state": "PA",
    "longitude": "-75.5137676",
    "latitude": "40.6068784"
  },
  "/en-us/service-locations/durham": {
    "title": "Durham",
    "address1": null,
    "address2": null,
    "city": "Durham",
    "zipCode": "27710",
    "state": "NC",
    "longitude": "-78.9449703",
    "latitude": "36.002573"
  },
  "/en-us/service-locations/virginia-beach": {
    "title": "Virginia Beach",
    "address1": null,
    "address2": null,
    "city": "Virginia Beach",
    "zipCode": "22360",
    "state": "VA",
    "longitude": null,
    "latitude": null
  },
  "/en-us/service-locations/baton-rouge": {
    "title": "Baton Rouge",
    "address1": null,
    "address2": null,
    "city": "Baton Rouge",
    "zipCode": "70802",
    "state": "LA",
    "longitude": "-9.114739E7",
    "latitude": "30.471165"
  },
  "/en-us/service-locations/rochester": {
    "title": "Rochester",
    "address1": null,
    "address2": null,
    "city": "Rochester",
    "zipCode": "14650",
    "state": "NY",
    "longitude": null,
    "latitude": null
  },
  "/en-us/service-locations/worcester": {
    "title": "Worcester",
    "address1": null,
    "address2": null,
    "city": "Worcester",
    "zipCode": "01613",
    "state": "MA",
    "longitude": null,
    "latitude": null
  },
  "/en-us/service-locations/toledo": {
    "title": "Toledo",
    "address1": null,
    "address2": null,
    "city": "Toledo",
    "zipCode": null,
    "state": "OH",
    "longitude": null,
    "latitude": null
  },
  "/en-us/service-locations/modesto": {
    "title": "Modesto",
    "address1": null,
    "address2": null,
    "city": "Modesto",
    "zipCode": null,
    "state": "California",
    "longitude": null,
    "latitude": null
  },
  "/en-us/service-locations/huntsville": {
    "title": "Huntsville",
    "address1": null,
    "address2": null,
    "city": "Huntsville",
    "zipCode": null,
    "state": "AL",
    "longitude": null,
    "latitude": null
  },
  "/en-us/service-locations/akron": {
    "title": "Akron",
    "address1": null,
    "address2": null,
    "city": "Akron",
    "zipCode": null,
    "state": "OH",
    "longitude": null,
    "latitude": null
  },
  "/en-us/service-locations/sarasota": {
    "title": "Sarasota",
    "address1": null,
    "address2": null,
    "city": "Sarasota",
    "zipCode": null,
    "state": "FL",
    "longitude": null,
    "latitude": null
  },
  "/en-us/service-locations/lubbock": {
    "title": "Lubbock",
    "address1": null,
    "address2": null,
    "city": "Lubbock",
    "zipCode": null,
    "state": "TX",
    "longitude": null,
    "latitude": null
  },
  "/en-us/service-locations/augusta": {
    "title": "Augusta",
    "address1": null,
    "address2": null,
    "city": "Augusta",
    "zipCode": null,
    "state": "GA",
    "longitude": null,
    "latitude": null
  },
  "/en-us/service-locations/newport-news": {
    "title": "Newport News",
    "address1": null,
    "address2": null,
    "city": "Newport News",
    "zipCode": null,
    "state": "VA",
    "longitude": null,
    "latitude": null
  },
  "/en-us/service-locations/erie": {
    "title": "Erie",
    "address1": null,
    "address2": null,
    "city": "Erie",
    "zipCode": null,
    "state": "PA",
    "longitude": null,
    "latitude": null
  },
  "/en-us/service-locations/south-bend": {
    "title": "South Bend",
    "address1": null,
    "address2": null,
    "city": "South Bend",
    "zipCode": null,
    "state": "IN",
    "longitude": null,
    "latitude": null
  },
  "/en-us/service-locations/amarillo": {
    "title": "Amarillo",
    "address1": null,
    "address2": null,
    "city": "Amarillo",
    "zipCode": null,
    "state": "TX",
    "longitude": null,
    "latitude": null
  },
  "/en-us/service-locations/glendale": {
    "title": "Glendale",
    "address1": null,
    "address2": null,
    "city": "Glendale",
    "zipCode": null,
    "state": "CA",
    "longitude": null,
    "latitude": null
  },
  "/en-us/service-locations/montgomery": {
    "title": "Montgomery",
    "address1": null,
    "address2": null,
    "city": "Montgomery",
    "zipCode": null,
    "state": "AL",
    "longitude": null,
    "latitude": null
  },
  "/en-us/service-locations/laredo": {
    "title": "Laredo",
    "address1": null,
    "address2": null,
    "city": "Laredo",
    "zipCode": null,
    "state": "TX",
    "longitude": null,
    "latitude": null
  },
  "/en-us/service-locations/macon": {
    "title": "Macon",
    "address1": null,
    "address2": null,
    "city": "Macon",
    "zipCode": null,
    "state": "GA",
    "longitude": null,
    "latitude": null
  },
  "/en-us/service-locations/rockford": {
    "title": "Denver",
    "address1": "3925 Monaco Parkway",
    "address2": "Unit D",
    "city": "Denver",
    "zipCode": "80207",
    "state": "CO",
    "longitude": "-104.913",
    "latitude": "39.772"
  },
  "/en-us/service-locations/tyler": {
    "title": "Tyler",
    "address1": null,
    "address2": null,
    "city": "Tyler",
    "zipCode": null,
    "state": "TX",
    "longitude": null,
    "latitude": null
  },
  "/en-us/service-locations/lakeland": {
    "title": "Lakeland",
    "address1": null,
    "address2": null,
    "city": "Lakeland",
    "zipCode": null,
    "state": "FL",
    "longitude": null,
    "latitude": null
  },
  "/en-us/service-locations/topeka": {
    "title": "Topeka",
    "address1": null,
    "address2": null,
    "city": "Topeka",
    "zipCode": null,
    "state": "KS",
    "longitude": null,
    "latitude": null
  },
  "/en-us/service-locations/athens": {
    "title": "Athens",
    "address1": null,
    "address2": null,
    "city": "Athens",
    "zipCode": null,
    "state": "GA",
    "longitude": null,
    "latitude": null
  },
  "/en-us/service-locations/santa-barbara": {
    "title": "Denver",
    "address1": "3925 Monaco Parkway",
    "address2": "Unit D",
    "city": "Denver",
    "zipCode": "80207",
    "state": "CO",
    "longitude": "-104.913",
    "latitude": "39.772"
  },
  "/en-us/service-locations/stamford": {
    "title": "Denver",
    "address1": "3925 Monaco Parkway",
    "address2": "Unit D",
    "city": "Denver",
    "zipCode": "80207",
    "state": "CO",
    "longitude": "-104.913",
    "latitude": "39.772"
  },
  "/en-us/service-locations/lansing": {
    "title": "Denver",
    "address1": "3925 Monaco Parkway",
    "address2": "Unit D",
    "city": "Denver",
    "zipCode": "80207",
    "state": "CO",
    "longitude": "-104.913",
    "latitude": "39.772"
  },
  "/en-us/service-locations/yonkers": {
    "title": "Denver",
    "address1": "3925 Monaco Parkway",
    "address2": "Unit D",
    "city": "Denver",
    "zipCode": "80207",
    "state": "CO",
    "longitude": "-104.913",
    "latitude": "39.772"
  }
}
